{"locations":{"0":{"state":"Alabama","name":"Huntsville","url":"","contact":{"Primary":"alabamainfo@gprsinc.com","Phone1":"256-777-7597","Secondary":"","Phone2":"","Tertiary":"","Phone3":""},"lat":34.7303688,"lng":-86.5861037},"1":{"state":"Alabama","name":"Birmingham","url":"city\/birmingham","contact":{"Primary":"alabamainfo@gprsinc.com","Phone1":"205-206-9662","Secondary":"","Phone2":"","Tertiary":"","Phone3":""},"lat":33.5185892,"lng":-86.8103567},"2":{"state":"Alabama","name":"Montgomery","contact":{"Primary":"alabamainfo@gprsinc.com","Phone1":"334-303-5263","Secondary":"","Phone2":"","Tertiary":"","Phone3":""},"lat":32.3792233,"lng":-86.3077368},"3":{"state":"Alabama","name":"Mobile","contact":{"Primary":"alabamainfo@gprsinc.com","Phone1":"251-401-8708","Secondary":"","Phone2":"","Tertiary":"","Phone3":""},"lat":30.6953657,"lng":-88.0398912},"4":{"state":"Alaska","name":"Alaska","url":"city\/anchorage","contact":{"Primary":"alaskainfo@gprsinc.com","Phone1":"253-796-5637","Secondary":"","Phone2":"","Tertiary":"","Phone3":""},"lat":64.2008413,"lng":-149.4936733},"5":{"state":"Arizona","name":"Flagstaff \/ Western AZ","contact":{"Primary":"arizonainfo@gprsinc.com","Phone1":"928-606-8902","Secondary":"","Phone2":"","Tertiary":"","Phone3":""},"lat":35.1982836,"lng":-111.651302},"6":{"state":"Arizona","name":"Phoenix","url":"city\/phoenix","contact":{"Primary":"arizonainfo@gprsinc.com","Phone1":"480-227-8614 ","Secondary":"","Phone2":"","Tertiary":"","Phone3":""},"lat":33.4483771,"lng":-112.0740373},"7":{"state":"Arizona","name":"Tucson","url":"city\/tucson","contact":{"Primary":"arizonainfo@gprsinc.com","Phone1":"520-444-7471","Secondary":"","Phone2":"","Tertiary":"","Phone3":""},"lat":32.2226066,"lng":-110.9747108},"8":{"state":"Arkansas","name":"Fort Smith","contact":{"Primary":"arkansasinfo@gprsinc.com","Phone1":"501-574-2003","Secondary":"","Phone2":"","Tertiary":"","Phone3":""},"lat":35.3859242,"lng":-94.3985475},"9":{"state":"Arkansas","name":"Little Rock","url":"city\/little-rock","contact":{"Primary":"arkansasinfo@gprsinc.com","Phone1":"501-503-2877","Secondary":"","Phone2":"","Tertiary":"","Phone3":""},"lat":34.7444618,"lng":-92.2880157},"10":{"state":"California","name":"San Francisco","url":"city\/san-francisco","contact":{"Primary":"californiainfo@gprsinc.com","Phone1":"415-553-0129","Secondary":"","Phone2":"","Tertiary":"","Phone3":""},"lat":37.7749295,"lng":-122.4194155},"11":{"state":"California","name":"San Jose","url":"city\/san-jose","contact":{"Primary":"californiainfo@gprsinc.com","Phone1":"415-553-0129","Secondary":"","Phone2":"","Tertiary":"","Phone3":""},"lat":37.3382082,"lng":-121.8863286},"13":{"state":"California","name":"Sacramento","url":"city\/sacramento","contact":{"Primary":"californiainfo@gprsinc.com","Phone1":"916-755-5997","Secondary":"","Phone2":"","Tertiary":"","Phone3":""},"lat":38.5815719,"lng":-121.4943996},"14":{"state":"California","name":"Fresno","url":"city\/fresno","contact":{"Primary":"californiainfo@gprsinc.com","Phone1":"559-753-0562","Secondary":"","Phone2":"","Tertiary":"","Phone3":""},"lat":36.7377981,"lng":-119.7871247},"15":{"state":"California","name":"Los Angeles","url":"city\/los-angeles","contact":{"Primary":"californiainfo@gprsinc.com","Phone1":"818-813-3614","Secondary":"","Phone2":"","Tertiary":"","Phone3":""},"lat":34.0522342,"lng":-118.2436849},"16":{"state":"California","name":"Bakersfield","contact":{"Primary":"californiainfo@gprsinc.com","Phone1":"661-336-8359","Secondary":"","Phone2":"","Tertiary":"","Phone3":""},"lat":35.3732921,"lng":-119.0187125},"20":{"state":"California","name":"Orange County","contact":{"Primary":"californiainfo@gprsinc.com","Phone1":"818-813-3614","Secondary":"","Phone2":"","Tertiary":"","Phone3":""},"lat":33.7174708,"lng":-117.8311428},"21":{"state":"California","name":"San Diego","url":"city\/san-diego","contact":{"Primary":"californiainfo@gprsinc.com","Phone1":"619-618-2425","Secondary":"","Phone2":"","Tertiary":"","Phone3":""},"lat":32.715738,"lng":-117.1610838},"23":{"state":"Colorado","name":"Denver Metro \/ Aurora","url":"city\/denver","contact":{"Primary":"coloradoinfo@gprsinc.com","Phone1":"303-775-8270","Secondary":"","Phone2":"","Tertiary":"","Phone3":""},"lat":39.7294319,"lng":-104.8319195},"24":{"state":"Colorado","name":"Fort Collins \/ Greeley \/ Loveland","contact":{"Primary":"coloradoinfo@gprsinc.com","Phone1":"970-309-2632","Secondary":"","Phone2":"","Tertiary":"","Phone3":""},"lat":40.3977612,"lng":-105.0749801},"25":{"state":"Colorado","name":"Colorado Springs \/ Pueblo","url":"city\/colorado-springs","contact":{"Primary":"coloradoinfo@gprsinc.com","Phone1":"719-359-4571","Secondary":"","Phone2":"","Tertiary":"","Phone3":""},"lat":38.2544472,"lng":-104.6091409},"26":{"state":"Colorado","name":"Durango","contact":{"Primary":"coloradoinfo@gprsinc.com","Phone1":"719-359-4571","Secondary":"","Phone2":"","Tertiary":"","Phone3":""},"lat":37.27528,"lng":-107.8800667},"27":{"state":"Colorado","name":"Grand Junction","contact":{"Primary":"coloradoinfo@gprsinc.com","Phone1":"970-309-2632","Secondary":"","Phone2":"","Tertiary":"","Phone3":""},"lat":39.0638705,"lng":-108.5506486},"28":{"state":"Colorado","name":"Vail \/ Aspen \/ Steamboat","contact":{"Primary":"coloradoinfo@gprsinc.com","Phone1":"970-309-2632","Secondary":"","Phone2":"","Tertiary":"","Phone3":""},"lat":39.6280031,"lng":-106.4184889},"29":{"state":"Colorado","name":"Boulder \/ Golden \/ Longmont","contact":{"Primary":"coloradoinfo@gprsinc.com","Phone1":"303-775-8270","Secondary":"","Phone2":"","Tertiary":"","Phone3":""},"lat":40.1695322,"lng":-105.1371014},"30":{"state":"Connecticut","name":"Hartford","contact":{"Primary":"connecticutinfo@gprsinc.com","Phone1":"860-338-4694","Secondary":"","Phone2":"","Tertiary":"","Phone3":""},"lat":41.7658043,"lng":-72.6733723},"31":{"state":"Delaware","name":"Delaware","url":"city\/wilmington","contact":{"Primary":"delawareinfo@gprsinc.com","Phone1":"302-339-5911","Secondary":"","Phone2":"","Tertiary":"","Phone3":""},"lat":38.9108325,"lng":-75.5276699},"32":{"state":"Florida","name":"Jacksonville","url":"city\/jacksonville","contact":{"Primary":"floridainfo@gprsinc.com","Phone1":"904-254-0952","Secondary":"","Phone2":"","Tertiary":"","Phone3":""},"lat":30.3321838,"lng":-81.655651},"33":{"state":"Florida","name":"Miami","url":"city\/miami","contact":{"Primary":"floridainfo@gprsinc.com","Phone1":"305-801-4138","Secondary":"","Phone2":"","Tertiary":"","Phone3":""},"lat":25.7616798,"lng":-80.1917902},"34":{"state":"Florida","name":"Naples \/ Fort Myers","contact":{"Primary":"floridainfo@gprsinc.com","Phone1":"941-685-4842","Secondary":"","Phone2":"","Tertiary":"","Phone3":""},"lat":26.644828,"lng":-81.8691908},"35":{"state":"Florida","name":"Pensacola","contact":{"Primary":"floridainfo@gprsinc.com","Phone1":"850-480-7421","Secondary":"","Phone2":"","Tertiary":"","Phone3":""},"lat":30.421309,"lng":-87.2169149},"36":{"state":"Florida","name":"St. Petersburg","contact":{"Primary":"floridainfo@gprsinc.com","Phone1":"727-420-3292","Secondary":"","Phone2":"","Tertiary":"","Phone3":""},"lat":27.7676008,"lng":-82.6402915},"37":{"state":"Florida","name":"Tallahassee","contact":{"Primary":"floridainfo@gprsinc.com","Phone1":"850-510-7743","Secondary":"","Phone2":"","Tertiary":"","Phone3":""},"lat":30.4382559,"lng":-84.2807329},"38":{"state":"Florida","name":"Tampa","url":"city\/tampa","contact":{"Primary":"floridainfo@gprsinc.com","Phone1":"727-420-3292","Secondary":"","Phone2":"","Tertiary":"","Phone3":""},"lat":27.950575,"lng":-82.4571776},"39":{"state":"Florida","name":"Ft. Lauderdale","contact":{"Primary":"floridainfo@gprsinc.com","Phone1":"954-290-3584","Secondary":"","Phone2":"","Tertiary":"","Phone3":""},"lat":26.1224386,"lng":-80.1373174},"40":{"state":"Florida","name":"West Palm","contact":{"Primary":"floridainfo@gprsinc.com","Phone1":"561-252-6132","Secondary":"","Phone2":"","Tertiary":"","Phone3":""},"lat":26.7153424,"lng":-80.0533746},"41":{"state":"Florida","name":"Orlando","url":"city\/orlando","contact":{"Primary":"floridainfo@gprsinc.com","Phone1":"407-335-6588","Secondary":"","Phone2":"","Tertiary":"","Phone3":""},"lat":28.5383832,"lng":-81.3789269},"42":{"state":"Georgia","name":"Atlanta","url":"city\/atlanta","contact":{"Primary":"georgiainfo@gprsinc.com","Phone1":"404-593-9227","Secondary":"","Phone2":"","Tertiary":"","Phone3":""},"lat":33.7489954,"lng":-84.3879824},"43":{"state":"Georgia","name":"Augusta","contact":{"Primary":"georgiainfo@gprsinc.com","Phone1":"706-836-9942","Secondary":"","Phone2":"","Tertiary":"","Phone3":""},"lat":33.4734978,"lng":-82.0105148},"44":{"state":"Hawaii","name":"Hawaii","url":"city\/honolulu","contact":{"Primary":"hawaiiinfo@gprsinc.com","Phone1":"808-638-9539","Secondary":"","Phone2":"","Tertiary":"","Phone3":""},"lat":19.8967662,"lng":-155.5827818},"45":{"state":"Idaho","name":"Boise \/ Idaho Falls","url":"city\/boise","contact":{"Primary":"idahoinfo@gprsinc.com","Phone1":"208-818-0103","Secondary":"","Phone2":"","Tertiary":"","Phone3":""},"lat":43.5076301,"lng":-112.0410038},"46":{"state":"Illinois","name":"Champaign","contact":{"Primary":"illinoisinfo@gprsinc.com","Phone1":"217-552-4970","Secondary":"","Phone2":"","Tertiary":"","Phone3":""},"lat":40.1164204,"lng":-88.2433829},"47":{"state":"Illinois","name":"Chicago","url":"city\/chicago","contact":{"Primary":"illinoisinfo@gprsinc.com","Phone1":"312-485-7725","Secondary":"","Phone2":"","Tertiary":"","Phone3":""},"lat":41.8781136,"lng":-87.6297982},"48":{"state":"Illinois","name":"Peoria","contact":{"Primary":"illinoisinfo@gprsinc.com","Phone1":"309-429-0804","Secondary":"","Phone2":"","Tertiary":"","Phone3":""},"lat":40.6936488,"lng":-89.5889864},"49":{"state":"Illinois","name":"Rockford","contact":{"Primary":"illinoisinfo@gprsinc.com","Phone1":"815-218-1122","Secondary":"","Phone2":"","Tertiary":"","Phone3":""},"lat":42.2711311,"lng":-89.0939952},"50":{"state":"Illinois","name":"Springfield","contact":{"Primary":"illinoisinfo@gprsinc.com","Phone1":"217-299-5078","Secondary":"","Phone2":"","Tertiary":"","Phone3":""},"lat":39.7817213,"lng":-89.6501481},"51":{"state":"Indiana","name":"Bloomington","contact":{"Primary":"indianainfo@gprsinc.com","Phone1":"812-318-4772","Secondary":"","Phone2":"","Tertiary":"","Phone3":""},"lat":39.165325,"lng":-86.5263857},"52":{"state":"Indiana","name":"Evansville","contact":{"Primary":"indianainfo@gprsinc.com","Phone1":"812-480-8487","Secondary":"","Phone2":"","Tertiary":"","Phone3":""},"lat":37.9715592,"lng":-87.5710898},"53":{"state":"Indiana","name":"Fort Wayne","contact":{"Primary":"indianainfo@gprsinc.com","Phone1":"260-213-3171","Secondary":"","Phone2":"","Tertiary":"","Phone3":""},"lat":41.079273,"lng":-85.1393513},"54":{"state":"Indiana","name":"Gary","contact":{"Primary":"indianainfo@gprsinc.com","Phone1":"312-485-7725","Secondary":"","Phone2":"","Tertiary":"","Phone3":""},"lat":41.6020403,"lng":-87.3371523},"55":{"state":"Indiana","name":"Indianapolis","url":"city\/indianapolis","contact":{"Primary":"indianainfo@gprsinc.com","Phone1":"317-504-1068 ","Secondary":"","Phone2":"","Tertiary":"","Phone3":""},"lat":39.768403,"lng":-86.158068},"56":{"state":"Indiana","name":"Lafayette","contact":{"Primary":"indianainfo@gprsinc.com","Phone1":"765-412-7690","Secondary":"","Phone2":"","Tertiary":"","Phone3":""},"lat":40.4167022,"lng":-86.8752869},"57":{"state":"Indiana","name":"South Bend","contact":{"Primary":"indianainfo@gprsinc.com","Phone1":"574-274-7031","Secondary":"","Phone2":"","Tertiary":"","Phone3":""},"lat":41.6763545,"lng":-86.2519898},"58":{"state":"Iowa","name":"Davenport","contact":{"Primary":"iowainfo@gprsinc.com","Phone1":"563-340-3753","Secondary":"","Phone2":"","Tertiary":"","Phone3":""},"lat":41.5236437,"lng":-90.5776367},"59":{"state":"Iowa","name":"Des Moines","contact":{"Primary":"iowainfo@gprsinc.com","Phone1":"515-283-0149","Secondary":"","Phone2":"","Tertiary":"","Phone3":""},"lat":41.5868353,"lng":-93.6249593},"60":{"state":"Kansas","name":"Wichita","url":"city\/wichita","contact":{"Primary":"kansasinfo@gprsinc.com","Phone1":"316-217-4879","Secondary":"","Phone2":"","Tertiary":"","Phone3":""},"lat":37.6871761,"lng":-97.330053},"61":{"state":"Kansas","name":"Manhattan \/ Salina \/ Western Kansas","contact":{"Primary":"kansasinfo@gprsinc.com","Phone1":"785-675-1402","Secondary":"","Phone2":"","Tertiary":"","Phone3":""},"lat":38.8871292,"lng":-101.3885001},"62":{"state":"Kansas","name":"Kansas City \/ Lawrence \/ Topeka","url":"city\/kansas-city","contact":{"Primary":"kansasinfo@gprsinc.com","Phone1":"913-232-6533","Secondary":"","Phone2":"","Tertiary":"","Phone3":""},"lat":39.0473451,"lng":-95.6751576},"63":{"state":"Kentucky","name":"Louisville","url":"city\/louisville","contact":{"Primary":"kentuckyinfo@gprsinc.com","Phone1":"502-528-8396","Secondary":"","Phone2":"","Tertiary":"","Phone3":""},"lat":38.2526647,"lng":-85.7584557},"64":{"state":"Kentucky","name":"Lexington","contact":{"Primary":"kentuckyinfo@gprsinc.com","Phone1":"859-640-0109","Secondary":"","Phone2":"","Tertiary":"","Phone3":""},"lat":38.0405837,"lng":-84.5037164},"65":{"state":"Louisiana","name":"Baton Rouge","contact":{"Primary":"louisianainfo@gprsinc.com","Phone1":"225-316-7110","Secondary":"","Phone2":"","Tertiary":"","Phone3":""},"lat":30.4514677,"lng":-91.1871466},"66":{"state":"Louisiana","name":"Lake Charles","contact":{"Primary":"louisianainfo@gprsinc.com","Phone1":"337-281-1343","Secondary":"","Phone2":"","Tertiary":"","Phone3":""},"lat":30.2265949,"lng":-93.2173758},"67":{"state":"Louisiana","name":"New Orleans","url":"city\/new-orleans","contact":{"Primary":"louisianainfo@gprsinc.com","Phone1":"504-418-6115","Secondary":"","Phone2":"","Tertiary":"","Phone3":""},"lat":29.9510658,"lng":-90.0715323},"69":{"state":"Maine","name":"Maine","contact":{"Primary":"maineinfo@gprsinc.com","Phone1":"857-248-1251","Secondary":"","Phone2":"","Tertiary":"","Phone3":""},"lat":45.253783,"lng":-69.4454689},"70":{"state":"Massachusetts","name":"Boston","url":"city\/boston","contact":{"Primary":"massachusettsinfo@gprsinc.com","Phone1":"617-448-8098","Secondary":"","Phone2":"","Tertiary":"","Phone3":""},"lat":42.3600825,"lng":-71.0588801},"71":{"state":"Maryland","name":"Baltimore","url":"city\/baltimore","contact":{"Primary":"marylandinfo@gprsinc.com","Phone1":"410-419-3608","Secondary":"","Phone2":"","Tertiary":"","Phone3":""},"lat":39.2903848,"lng":-76.6121893},"72":{"state":"Maryland","name":"Frederick \/ Hagerstown","contact":{"Primary":"marylandinfo@gprsinc.com","Phone1":"240-200-1447 ","Secondary":"","Phone2":"","Tertiary":"","Phone3":""},"lat":39.6261565,"lng":-77.7149226},"73":{"state":"Michigan","name":"Lansing","contact":{"Primary":"michiganinfo@gprsinc.com","Phone1":"517-231-9383","Secondary":"","Phone2":"","Tertiary":"","Phone3":""},"lat":42.732535,"lng":-84.5555347},"74":{"state":"Michigan","name":"Ann Arbor","contact":{"Primary":"michiganinfo@gprsinc.com","Phone1":"734-377-4551","Secondary":"","Phone2":"","Tertiary":"","Phone3":""},"lat":42.2808256,"lng":-83.7430378},"75":{"state":"Michigan","name":"Detroit","url":"city\/detroit","contact":{"Primary":"michiganinfo@gprsinc.com","Phone1":"248-917-1763","Secondary":"","Phone2":"","Tertiary":"","Phone3":""},"lat":42.331427,"lng":-83.0457538},"76":{"state":"Michigan","name":"Grand Rapids","contact":{"Primary":"michiganinfo@gprsinc.com","Phone1":"616-888-6529","Secondary":"","Phone2":"","Tertiary":"","Phone3":""},"lat":42.9633599,"lng":-85.6680863},"78":{"state":"Michigan","name":"Saginaw \/ Bay City","contact":{"Primary":"michiganinfo@gprsinc.com","Phone1":"989-545-2699","Secondary":"","Phone2":"","Tertiary":"","Phone3":""},"lat":43.5944677,"lng":-83.8888647},"79":{"state":"Minnesota","name":"Duluth","contact":{"Primary":"minnesotainfo@gprsinc.com","Phone1":"218-260-0883","Secondary":"","Phone2":"","Tertiary":"","Phone3":""},"lat":46.7866719,"lng":-92.1004852},"80":{"state":"Minnesota","name":"Minneapolis\/St. Cloud","url":"city\/minneapolis","contact":{"Primary":"minnesotainfo@gprsinc.com","Phone1":"612-270-8427","Secondary":"","Phone2":"","Tertiary":"","Phone3":""},"lat":45.5579451,"lng":-94.1632404},"82":{"state":"Mississippi","name":"Biloxi \/ Gulfport","contact":{"Primary":"mississippiinfo@gprsinc.com","Phone1":"228-239-0927","Secondary":"","Phone2":"","Tertiary":"","Phone3":""},"lat":30.3674198,"lng":-89.0928155},"83":{"state":"Mississippi","name":"Jackson","contact":{"Primary":"mississippiinfo@gprsinc.com","Phone1":"601-691-0190","Secondary":"","Phone2":"","Tertiary":"","Phone3":""},"lat":32.2987573,"lng":-90.1848103},"84":{"state":"Missouri","name":"Cape Girardeau","contact":{"Primary":"missouriinfo@gprsinc.com","Phone1":"573-355-1924","Secondary":"","Phone2":"","Tertiary":"","Phone3":""},"lat":37.3058839,"lng":-89.5181476},"85":{"state":"Missouri","name":"Columbia","contact":{"Primary":"missouriinfo@gprsinc.com","Phone1":"573-355-8010","Secondary":"","Phone2":"","Tertiary":"","Phone3":""},"lat":38.9517053,"lng":-92.3340724},"86":{"state":"Missouri","name":"St. Louis","url":"city\/st-louis","contact":{"Primary":"missouriinfo@gprsinc.com","Phone1":"314-412-9806","Secondary":"","Phone2":"","Tertiary":"","Phone3":""},"lat":38.6270025,"lng":-90.1994042},"90":{"state":"Nebraska","name":"Omaha \/ Lincoln","url":"city\/omaha","contact":{"Primary":"nebraskainfo@gprsinc.com","Phone1":"402-506-0815","Secondary":"","Phone2":"","Tertiary":"","Phone3":""},"lat":40.8139616,"lng":-96.7032838},"91":{"state":"Nebraska","name":"Western Nebraska","contact":{"Primary":"nebraskainfo@gprsinc.com","Phone1":"402-506-0815","Secondary":"","Phone2":"","Tertiary":"","Phone3":""},"lat":40.3934846,"lng":-97.1978966},"93":{"state":"New Hampshire","name":"New Hampshire","contact":{"Primary":"newhampshireinfo@gprsinc.com","Phone1":"603-703-6007","Secondary":"","Phone2":"","Tertiary":"","Phone3":""},"lat":43.1938516,"lng":-71.5723953},"94":{"state":"New Jersey","name":"New Jersey","contact":{"Primary":"newjerseyinfo@gprsinc.com","Phone1":"848-223-5084","Secondary":"","Phone2":"","Tertiary":"","Phone3":""},"lat":40.0583238,"lng":-74.4056612},"96":{"state":"New Mexico","name":"Albuquerque \/ Santa Fe \/ Las Cruces","url":"city\/albuquerque-abq","contact":{"Primary":"newmexicoinfo@gprsinc.com","Phone1":"505-250-6742","Secondary":"","Phone2":"","Tertiary":"","Phone3":""},"lat":32.322152,"lng":-106.7753048},"97":{"state":"New Mexico","name":"Hobbs \/ Southern New Mexico","contact":{"Primary":"newmexicoinfo@gprsinc.com","Phone1":"505-250-6742","Secondary":"","Phone2":"","Tertiary":"","Phone3":""},"lat":32.7389488,"lng":-103.1454849},"98":{"state":"New York","name":"New York City","url":"city\/new-york-city","contact":{"Primary":"newyorkinfo@gprsinc.com","Phone1":"646-765-5599","Secondary":"","Phone2":"","Tertiary":"","Phone3":""},"lat":40.7127753,"lng":-74.0059728},"99":{"state":"New York","name":"Albany","url":"city\/albany","contact":{"Primary":"newyorkinfo@gprsinc.com","Phone1":"518-390-3725","Secondary":"","Phone2":"","Tertiary":"","Phone3":""},"lat":42.6525793,"lng":-73.7562317},"100":{"state":"New York","name":"Rochester","contact":{"Primary":"newyorkinfo@gprsinc.com","Phone1":"315-715-5137","Secondary":"","Phone2":"","Tertiary":"","Phone3":""},"lat":43.1565779,"lng":-77.6088465},"101":{"state":"New York","name":"Long Island","contact":{"Primary":"newyorkinfo@gprsinc.com","Phone1":"929-378-0830","Secondary":"","Phone2":"","Tertiary":"","Phone3":""},"lat":40.789142,"lng":-73.134961},"102":{"state":"North Carolina","name":"Charlotte","url":"city\/charlotte","contact":{"Primary":"northcarolinainfo@gprsinc.com","Phone1":"704-582-3219","Secondary":"","Phone2":"","Tertiary":"","Phone3":""},"lat":35.2270869,"lng":-80.8431267},"103":{"state":"North Carolina","name":"Fayetteville \/ Wilmington","contact":{"Primary":"northcarolinainfo@gprsinc.com","Phone1":"910-489-4769","Secondary":"","Phone2":"","Tertiary":"","Phone3":""},"lat":35.0526641,"lng":-78.8783585},"104":{"state":"North Carolina","name":"Greensboro \/ Winston-Salem","contact":{"Primary":"northcarolinainfo@gprsinc.com","Phone1":"336-482-5686","Secondary":"","Phone2":"","Tertiary":"","Phone3":""},"lat":36.0998596,"lng":-80.244216},"105":{"state":"North Carolina","name":"Raleigh \/ Durham","url":"city\/raleigh","contact":{"Primary":"northcarolinainfo@gprsinc.com","Phone1":"919-671-9476","Secondary":"","Phone2":"","Tertiary":"","Phone3":""},"lat":35.9940329,"lng":-78.898619},"106":{"state":"North Dakota","name":"Fargo","contact":{"Primary":"northdakotainfo@gprsinc.com","Phone1":"701-371-4461","Secondary":"","Phone2":"","Tertiary":"","Phone3":""},"lat":46.8771863,"lng":-96.7898034},"107":{"state":"North Dakota","name":"Bismarck","contact":{"Primary":"northdakotainfo@gprsinc.com","Phone1":"701-202-8182","Secondary":"","Phone2":"","Tertiary":"","Phone3":""},"lat":46.8083268,"lng":-100.7837392},"108":{"state":"Ohio","name":"Toledo","url":"city\/toledo","contact":{"Primary":"ohioinfo@gprsinc.com","Phone1":"419-280-1727","Secondary":"","Phone2":"","Tertiary":"","Phone3":""},"lat":41.6528052,"lng":-83.5378674},"109":{"state":"Ohio","name":"Akron","contact":{"Primary":"ohioinfo@gprsinc.com","Phone1":"330-352-0145","Secondary":"","Phone2":"","Tertiary":"","Phone3":""},"lat":41.0814447,"lng":-81.5190053},"110":{"state":"Ohio","name":"Cleveland","url":"city\/cleveland","contact":{"Primary":"ohioinfo@gprsinc.com","Phone1":"216-903-9676","Secondary":"","Phone2":"","Tertiary":"","Phone3":""},"lat":41.49932,"lng":-81.6943605},"111":{"state":"Ohio","name":"Columbus","url":"city\/columbus","contact":{"Primary":"ohioinfo@gprsinc.com","Phone1":"614-357-1800","Secondary":"","Phone2":"","Tertiary":"","Phone3":""},"lat":39.9611755,"lng":-82.9987942},"112":{"state":"Ohio","name":"Dayton","url":"city\/dayton","contact":{"Primary":"ohioinfo@gprsinc.com","Phone1":"937-604-7802","Secondary":"","Phone2":"","Tertiary":"","Phone3":""},"lat":39.7589478,"lng":-84.1916069},"113":{"state":"Ohio","name":"Cincinnati","url":"city\/cincinnati","contact":{"Primary":"ohioinfo@gprsinc.com","Phone1":"513-432-7484","Secondary":"","Phone2":"","Tertiary":"","Phone3":""},"lat":39.1031182,"lng":-84.5120196},"115":{"state":"Oklahoma","name":"Tulsa","url":"city\/tulsa","contact":{"Primary":"oklahomainfo@gprsinc.com","Phone1":"918-894-6043","Secondary":"","Phone2":"","Tertiary":"","Phone3":""},"lat":36.1539816,"lng":-95.992775},"117":{"state":"Oregon","name":"Portland","url":"city\/portland","contact":{"Primary":"oregoninfo@gprsinc.com","Phone1":"503-663-8366","Secondary":"","Phone2":"","Tertiary":"","Phone3":""},"lat":45.515232,"lng":-122.6783853},"118":{"state":"Pennsylvania","name":"Harrisburg","contact":{"Primary":"pennsylvaniainfo@gprsinc.com","Phone1":"717-803-3774","Secondary":"","Phone2":"","Tertiary":"","Phone3":""},"lat":40.2731911,"lng":-76.8867008},"119":{"state":"Pennsylvania","name":"Philadelphia","url":"city\/philadelphia","contact":{"Primary":"pennsylvaniainfo@gprsinc.com","Phone1":"215-694-4747","Secondary":"","Phone2":"","Tertiary":"","Phone3":""},"lat":39.9525839,"lng":-75.1652215},"120":{"state":"Pennsylvania","name":"Pittsburgh \/ Western PA","url":"city\/pittsburgh","contact":{"Primary":"pennsylvaniainfo@gprsinc.com","Phone1":"412-355-4992","Secondary":"","Phone2":"","Tertiary":"","Phone3":""},"lat":40.4406248,"lng":-79.9958864},"121":{"state":"Rhode Island","name":"Rhode Island","contact":{"Primary":"rhodeislandinfo@gprsinc.com","Phone1":"401-400-4155","Secondary":"","Phone2":"","Tertiary":"","Phone3":""},"lat":41.5800945,"lng":-71.4774291},"122":{"state":"South Carolina","name":"Charleston \/ Hilton Head","contact":{"Primary":"southcarolinainfo@gprsinc.com","Phone1":"843-312-6662","Secondary":"","Phone2":"","Tertiary":"","Phone3":""},"lat":32.218997,"lng":-80.715072},"123":{"state":"South Carolina","name":"Myrtle Beach","contact":{"Primary":"southcarolinainfo@gprsinc.com","Phone1":"843-312-6662","Secondary":"","Phone2":"","Tertiary":"","Phone3":""},"lat":33.6890603,"lng":-78.8866943},"124":{"state":"South Carolina","name":"Columbia","contact":{"Primary":"southcarolinainfo@gprsinc.com","Phone1":"803-999-3702","Secondary":"","Phone2":"","Tertiary":"","Phone3":""},"lat":34.0007104,"lng":-81.0348144},"125":{"state":"South Carolina","name":"Greenville","contact":{"Primary":"southcarolinainfo@gprsinc.com","Phone1":"864-504-1440","Secondary":"","Phone2":"","Tertiary":"","Phone3":""},"lat":34.8526176,"lng":-82.3940104},"126":{"state":"South Dakota","name":"Rapid City","contact":{"Primary":"southdakotainfo@gprsinc.com","Phone1":"605-858-1582","Secondary":"","Phone2":"","Tertiary":"","Phone3":""},"lat":44.0805434,"lng":-103.2310149},"127":{"state":"South Dakota","name":"Sioux Falls","contact":{"Primary":"southdakotainfo@gprsinc.com","Phone1":"605-595-4883","Secondary":"","Phone2":"","Tertiary":"","Phone3":""},"lat":43.5460223,"lng":-96.731265},"128":{"state":"Tennessee","name":"Chattanooga","contact":{"Primary":"tennesseeinfo@gprsinc.com","Phone1":"423-667-0456","Secondary":"","Phone2":"","Tertiary":"","Phone3":""},"lat":35.0456297,"lng":-85.3096801},"129":{"state":"Tennessee","name":"Nashville","url":"city\/nashville","contact":{"Primary":"tennesseeinfo@gprsinc.com","Phone1":"615-418-4023","Secondary":"","Phone2":"","Tertiary":"","Phone3":""},"lat":36.1626638,"lng":-86.7816016},"130":{"state":"Tennessee","name":"Memphis","url":"city\/memphis","contact":{"Primary":"tennesseeinfo@gprsinc.com","Phone1":"901-701-1191","Secondary":"","Phone2":"","Tertiary":"","Phone3":""},"lat":35.1495343,"lng":-90.0489801},"131":{"state":"Tennessee","name":"Knoxville","contact":{"Primary":"tennesseeinfo@gprsinc.com","Phone1":"865-545-0069","Secondary":"","Phone2":"","Tertiary":"","Phone3":""},"lat":35.9606384,"lng":-83.9207392},"132":{"state":"Texas","name":"Houston","url":"city\/houston","contact":{"Primary":"texasinfo@gprsinc.com","Phone1":"832-262-3438","Secondary":"","Phone2":"","Tertiary":"","Phone3":""},"lat":29.7604267,"lng":-95.3698028},"133":{"state":"Texas","name":"El Paso","url":"city\/el-paso","contact":{"Primary":"texasinfo@gprsinc.com","Phone1":"915-209-3111","Secondary":"","Phone2":"","Tertiary":"","Phone3":""},"lat":31.7618778,"lng":-106.4850217},"134":{"state":"Texas","name":"Amarillo","contact":{"Primary":"texasinfo@gprsinc.com","Phone1":"806-336-2337","Secondary":"","Phone2":"","Tertiary":"","Phone3":""},"lat":35.2219971,"lng":-101.8312969},"135":{"state":"Texas","name":"Austin","url":"city\/austin","contact":{"Primary":"texasinfo@gprsinc.com","Phone1":"512-662-1964","Secondary":"","Phone2":"","Tertiary":"","Phone3":""},"lat":30.267153,"lng":-97.7430608},"136":{"state":"Texas","name":"Beaumont","contact":{"Primary":"texasinfo@gprsinc.com","Phone1":"409-719-1531","Secondary":"","Phone2":"","Tertiary":"","Phone3":""},"lat":30.080174,"lng":-94.1265562},"137":{"state":"Texas","name":"College Station","contact":{"Primary":"texasinfo@gprsinc.com","Phone1":"979-307-7794","Secondary":"","Phone2":"","Tertiary":"","Phone3":""},"lat":30.627977,"lng":-96.3344068},"138":{"state":"Texas","name":"Corpus Christi","contact":{"Primary":"texasinfo@gprsinc.com","Phone1":"361-693-5494","Secondary":"","Phone2":"","Tertiary":"","Phone3":""},"lat":27.8005828,"lng":-97.396381},"139":{"state":"Texas","name":"Galveston","contact":{"Primary":"texasinfo@gprsinc.com","Phone1":"409-739-1909","Secondary":"","Phone2":"","Tertiary":"","Phone3":""},"lat":29.3013479,"lng":-94.7976958},"140":{"state":"Texas","name":"Lubbock","contact":{"Primary":"texasinfo@gprsinc.com","Phone1":"806-553-7555","Secondary":"","Phone2":"","Tertiary":"","Phone3":""},"lat":33.5778631,"lng":-101.8551665},"142":{"state":"Texas","name":"Midland \/ Odessa","contact":{"Primary":"texasinfo@gprsinc.com","Phone1":"432-227-2741","Secondary":"","Phone2":"","Tertiary":"","Phone3":""},"lat":31.9391746,"lng":-102.2522487},"143":{"state":"Texas","name":"San Antonio","url":"city\/san-antonio","contact":{"Primary":"texasinfo@gprsinc.com","Phone1":"210-469-4006","Secondary":"","Phone2":"","Tertiary":"","Phone3":""},"lat":29.4251905,"lng":-98.4945922},"144":{"state":"Texas","name":"Dallas","url":"city\/dallas","contact":{"Primary":"texasinfo@gprsinc.com","Phone1":"214-471-9001","Secondary":"","Phone2":"","Tertiary":"","Phone3":""},"lat":32.7766642,"lng":-96.7969879},"145":{"state":"Texas","name":"Waco","contact":{"Primary":"texasinfo@gprsinc.com","Phone1":"254-405-6522","Secondary":"","Phone2":"","Tertiary":"","Phone3":""},"lat":31.549333,"lng":-97.1466695},"146":{"state":"Texas","name":"Fort Worth","url":"city\/fort-worth","contact":{"Primary":"texasinfo@gprsinc.com","Phone1":"214-471-9001","Secondary":"","Phone2":"","Tertiary":"","Phone3":""},"lat":32.7554883,"lng":-97.3307658},"147":{"state":"Utah","name":"Salt Lake City \/ Provo \/ Ogden","url":"city\/salt-lake-city","contact":{"Primary":"utahinfo@gprsinc.com","Phone1":"801-599-2115","Secondary":"","Phone2":"","Tertiary":"","Phone3":""},"lat":41.223,"lng":-111.9738304},"148":{"state":"Vermont","name":"Vermont","contact":{"Primary":"vermontinfo@gprsinc.com","Phone1":"603-703-6007","Secondary":"","Phone2":"","Tertiary":"","Phone3":""},"lat":44.5588028,"lng":-72.5778415},"149":{"state":"Virginia","name":"Arlington","url":"city\/arlington","contact":{"Primary":"virginiainfo@gprsinc.com","Phone1":"703-728-7333","Secondary":"","Phone2":"","Tertiary":"","Phone3":""},"lat":38.8799697,"lng":-77.1067698},"150":{"state":"Virginia","name":"Charlottesville","contact":{"Primary":"virginiainfo@gprsinc.com","Phone1":"434-260-9986 ","Secondary":"","Phone2":"","Tertiary":"","Phone3":""},"lat":38.0293059,"lng":-78.4766781},"151":{"state":"Virginia","name":"Northern Virginia","contact":{"Primary":"virginiainfo@gprsinc.com","Phone1":"703-728-7333 ","Secondary":"","Phone2":"","Tertiary":"","Phone3":""},"lat":38.6839873,"lng":-77.2612366},"152":{"state":"Virginia","name":"Richmond","contact":{"Primary":"virginiainfo@gprsinc.com","Phone1":"804-977-0460","Secondary":"","Phone2":"","Tertiary":"","Phone3":""},"lat":37.5407246,"lng":-77.4360481},"153":{"state":"Virginia","name":"Roanoke \/ SW Virginia","contact":{"Primary":"virginiainfo@gprsinc.com","Phone1":"434-260-9986","Secondary":"","Phone2":"","Tertiary":"","Phone3":""},"lat":37.2709704,"lng":-79.9414266},"154":{"state":"Virginia","name":"Virginia Beach","url":"city\/virginia-beach","contact":{"Primary":"virginiainfo@gprsinc.com","Phone1":"757-319-1903","Secondary":"","Phone2":"","Tertiary":"","Phone3":""},"lat":36.8516437,"lng":-75.9792194},"155":{"state":"Washington D.C.","name":"Washington D.C.","url":"city\/washington-dc","contact":{"Primary":"dcinfo@gprsinc.com","Phone1":"202-642-0712","Secondary":"","Phone2":"","Tertiary":"","Phone3":""},"lat":38.9071923,"lng":-77.0368707},"156":{"state":"Washington","name":"Seattle","url":"city\/seattle","contact":{"Primary":"washingtoninfo@gprsinc.com","Phone1":"253-796-5637","Secondary":"","Phone2":"","Tertiary":"","Phone3":""},"lat":47.6062095,"lng":-122.3320708},"158":{"state":"West Virginia","name":"Charleston","contact":{"Primary":"westvirginiainfo@gprsinc.com","Phone1":"304-989-2323","Secondary":"","Phone2":"","Tertiary":"","Phone3":""},"lat":38.3498195,"lng":-81.6326234},"159":{"state":"West Virginia","name":"Morgantown","contact":{"Primary":"westvirginiainfo@gprsinc.com","Phone1":"681-209-5725","Secondary":"","Phone2":"","Tertiary":"","Phone3":""},"lat":39.629526,"lng":-79.9558968},"160":{"state":"Wisconsin","name":"Appleton","contact":{"Primary":"wisconsininfo@gprsinc.com","Phone1":"920-365-2736","Secondary":"","Phone2":"","Tertiary":"","Phone3":""},"lat":44.2619309,"lng":-88.4153847},"161":{"state":"Wisconsin","name":"Milwaukee","url":"city\/milwaukee","contact":{"Primary":"wisconsininfo@gprsinc.com","Phone1":"414-795-6845 ","Secondary":"","Phone2":"","Tertiary":"","Phone3":""},"lat":43.0389025,"lng":-87.9064736},"162":{"state":"Wisconsin","name":"Madison","contact":{"Primary":"wisconsininfo@gprsinc.com","Phone1":"608-250-0650","Secondary":"","Phone2":"","Tertiary":"","Phone3":""},"lat":43.0730517,"lng":-89.4012302},"164":{"state":"Wyoming","name":"Cheyenne \/ Laramie \/ Casper","contact":{"Primary":"wyominginfo@gprsinc.com","Phone1":"307-214-4402","Secondary":"","Phone2":"","Tertiary":"","Phone3":""},"lat":42.8614009,"lng":-106.3349653},"165":{"state":"Wyoming","name":"Jackson \/ Jackson Hole","contact":{"Primary":"wyominginfo@gprsinc.com","Phone1":"307-214-4402","Secondary":"","Phone2":"","Tertiary":"","Phone3":""},"lat":43.4812222,"lng":-110.766406},"166":{"state":"North Carolina","name":"Asheville","contact":{"Primary":"northcarolinainfo@gprsinc.com","Phone1":"828-243-8760","Secondary":"","Phone2":"","Tertiary":"","Phone3":""},"lat":35.5950581,"lng":-82.5514869},"167":{"state":"Montana","name":"Bozeman \/ Helena \/ Missoula \/ Billings","contact":{"Primary":"montanainfo@gprsinc.com","Phone1":"406-404-4727","Secondary":"","Phone2":"","Tertiary":"","Phone3":""},"lat":45.7322656,"lng":-108.6206567},"168":{"state":"Nevada","name":"Las Vegas","url":"city\/las-vegas","contact":{"Primary":"nevadainfo@gprsinc.com","Phone1":"702-573-9228","Secondary":"","Phone2":"","Tertiary":"","Phone3":""},"lat":36.171563,"lng":-115.1391009},"169":{"state":"Nevada","name":"Reno","contact":{"Primary":"nevadainfo@gprsinc.com","Phone1":"775-560-8915","Secondary":"","Phone2":"","Tertiary":"","Phone3":""},"lat":39.5296329,"lng":-119.8138027},"170":{"state":"Pennsylvania","name":"Erie","contact":{"Primary":"pennsylvaniainfo@gprsinc.com","Phone1":"814-367-7570","Secondary":"","Phone2":"","Tertiary":"","Phone3":""},"lat":42.1292241,"lng":-80.085059},"171":{"state":"Michigan","name":"Traverse City","contact":{"Primary":"michiganinfo@gprsinc.com","Phone1":"231-357-9541","Secondary":"","Phone2":"","Tertiary":"","Phone3":""},"lat":44.7630567,"lng":-85.6206317},"172":{"state":"Ohio","name":"Lima","contact":{"Primary":"ohioinfo@gprsinc.com","Phone1":"419-280-1727","Secondary":"","Phone2":"","Tertiary":"","Phone3":""},"lat":40.742551,"lng":-84.1052256},"173":{"state":"Georgia","name":"Savannah","contact":{"Primary":"georgiainfo@gprsinc.com","Phone1":"912-414-8579","Secondary":"","Phone2":"","Tertiary":"","Phone3":""},"lat":32.0808989,"lng":-81.091203},"174":{"state":"Louisiana","name":"Monroe","contact":{"Primary":"louisianainfo@gprsinc.com","Phone1":"318-464-4991","Secondary":"","Phone2":"","Tertiary":"","Phone3":""},"lat":32.5093109,"lng":-92.1193012},"175":{"state":"Oklahoma","name":"Western Oklahoma","contact":{"Primary":"oklahomainfo@gprsinc.com","Phone1":"580-335-4355","Secondary":"","Phone2":"","Tertiary":"","Phone3":""},"lat":35.9374134,"lng":-98.8362755},"176":{"state":"Oklahoma","name":"Oklahoma City","contact":{"Primary":"oklahomainfo@gprsinc.com","Phone1":"405-815-7415","Secondary":"","Phone2":"","Tertiary":"","Phone3":""},"lat":35.4675602,"lng":-97.5164276},"177":{"state":"New York","name":"Buffalo","url":"city\/buffalo","contact":{"Primary":"newyorkinfo@gprsinc.com","Phone1":"315-715-5137","Secondary":"","Phone2":"","Tertiary":"","Phone3":""},"lat":42.8864468,"lng":-78.8783689},"178":{"state":"California","name":"Mesa","url":"city\/mesa","contact":{"Primary":"californiainfo@gprsinc.com","Phone1":"480-227-8614","Secondary":"","Phone2":"","Tertiary":"","Phone3":""},"lat":37.4174983,"lng":-118.54186},"179":{"state":"California","name":"Oakland","url":"city\/oakland","contact":{"Primary":"californiainfo@gprsinc.com","Phone1":"415-553-0129","Secondary":"","Phone2":"","Tertiary":"","Phone3":""},"lat":37.8043514,"lng":-122.2711639},"180":{"state":"California","name":"Long Beach","url":"city\/long-beach","contact":{"Primary":"westcoastinfo@gprsinc.com","Phone1":"818-813-3614","Secondary":"","Phone2":"","Tertiary":"","Phone3":""},"lat":33.7700504,"lng":-118.1937395},"181":{"state":"Connecticut","name":"Bridgeport","url":"city\/bridgeport","contact":{"Primary":"connecticutinfo@gprsinc.com","Phone1":"860-338-4694","Secondary":"","Phone2":"","Tertiary":"","Phone3":""},"lat":41.1792258,"lng":-73.1894384},"182":{"state":"New York","name":"Syracuse","url":"city\/syracuse","contact":{"Primary":"newyorkinfo@gprsinc.com","Phone1":"315-715-5137","Secondary":"","Phone2":"","Tertiary":"","Phone3":""},"lat":43.0481221,"lng":-76.1474244}}}
